[
  {
    "city": "ap-Addanki",
    "name": "Addanki",
    "lat": "15.81061000",
    "longi": "79.97338000"
  },
  {
    "city": "ap-Adoni",
    "name": "Adoni",
    "lat": "15.62788000",
    "longi": "77.27495000"
  },
  {
    "city": "ap-Akasahebpet",
    "name": "Akasahebpet",
    "lat": "17.50455000",
    "longi": "82.56597000"
  },
  {
    "city": "ap-Akividu",
    "name": "Akividu",
    "lat": "16.58225000",
    "longi": "81.38112000"
  },
  {
    "city": "ap-Akkarampalle",
    "name": "Akkarampalle",
    "lat": "13.65000000",
    "longi": "79.42000000"
  },
  {
    "city": "ap-Amalapuram",
    "name": "Amalapuram",
    "lat": "16.57868000",
    "longi": "82.00609000"
  },
  {
    "city": "ap-Amudalavalasa",
    "name": "Amudalavalasa",
    "lat": "18.41025000",
    "longi": "83.90295000"
  },
  {
    "city": "ap-Anakapalle",
    "name": "Anakapalle",
    "lat": "17.69134000",
    "longi": "83.00395000"
  },
  {
    "city": "ap-Anantapur",
    "name": "Anantapur",
    "lat": "14.55000000",
    "longi": "77.41667000"
  },
  {
    "city": "ap-Atmakur",
    "name": "Atmakur",
    "lat": "15.88109000",
    "longi": "78.58704000"
  },
  {
    "city": "ap-Attili",
    "name": "Attili",
    "lat": "16.70000000",
    "longi": "81.60000000"
  },
  {
    "city": "ap-Avanigadda",
    "name": "Avanigadda",
    "lat": "16.02148000",
    "longi": "80.91808000"
  },
  {
    "city": "ap-Badvel",
    "name": "Badvel",
    "lat": "14.74510000",
    "longi": "79.06288000"
  },
  {
    "city": "ap-Banganapalle",
    "name": "Banganapalle",
    "lat": "15.31771000",
    "longi": "78.22669000"
  },
  {
    "city": "ap-Bapatla",
    "name": "Bapatla",
    "lat": "15.90422000",
    "longi": "80.46743000"
  },
  {
    "city": "ap-Betamcherla",
    "name": "Betamcherla",
    "lat": "15.45144000",
    "longi": "78.14797000"
  },
  {
    "city": "ap-Bhattiprolu",
    "name": "Bhattiprolu",
    "lat": "16.10260000",
    "longi": "80.78074000"
  },
  {
    "city": "ap-Bhimavaram",
    "name": "Bhimavaram",
    "lat": "16.54078000",
    "longi": "81.52322000"
  },
  {
    "city": "ap-Bhimunipatnam",
    "name": "Bhimunipatnam",
    "lat": "17.89017000",
    "longi": "83.45203000"
  },
  {
    "city": "ap-Bobbili",
    "name": "Bobbili",
    "lat": "18.57366000",
    "longi": "83.35925000"
  },
  {
    "city": "ap-Challapalle",
    "name": "Challapalle",
    "lat": "16.11756000",
    "longi": "80.93139000"
  },
  {
    "city": "ap-Chemmumiahpet",
    "name": "Chemmumiahpet",
    "lat": "15.89794000",
    "longi": "79.32129000"
  },
  {
    "city": "ap-Chilakalurupet",
    "name": "Chilakalurupet",
    "lat": "16.08987000",
    "longi": "80.16705000"
  },
  {
    "city": "ap-Chinnachowk",
    "name": "Chinnachowk",
    "lat": "14.47516000",
    "longi": "78.83540000"
  },
  {
    "city": "ap-Chipurupalle",
    "name": "Chipurupalle",
    "lat": "18.31142000",
    "longi": "83.56846000"
  },
  {
    "city": "ap-Chirala",
    "name": "Chirala",
    "lat": "15.82385000",
    "longi": "80.35219000"
  },
  {
    "city": "ap-Chittoor",
    "name": "Chittoor",
    "lat": "13.41667000",
    "longi": "79.00000000"
  },
  {
    "city": "ap-Chodavaram",
    "name": "Chodavaram",
    "lat": "17.82884000",
    "longi": "82.93526000"
  },
  {
    "city": "ap-Cuddapah",
    "name": "Cuddapah",
    "lat": "14.41667000",
    "longi": "78.75000000"
  },
  {
    "city": "ap-Cumbum",
    "name": "Cumbum",
    "lat": "15.58171000",
    "longi": "79.11059000"
  },
  {
    "city": "ap-Darsi",
    "name": "Darsi",
    "lat": "15.76978000",
    "longi": "79.67939000"
  },
  {
    "city": "ap-Dharmavaram",
    "name": "Dharmavaram",
    "lat": "14.41435000",
    "longi": "77.72035000"
  },
  {
    "city": "ap-Dhone",
    "name": "Dhone",
    "lat": "15.39520000",
    "longi": "77.87150000"
  },
  {
    "city": "ap-Diguvametta",
    "name": "Diguvametta",
    "lat": "15.39507000",
    "longi": "78.82930000"
  },
  {
    "city": "ap-East Godavari",
    "name": "East Godavari",
    "lat": "17.83333000",
    "longi": "81.83333000"
  },
  {
    "city": "ap-Elamanchili",
    "name": "Elamanchili",
    "lat": "17.54907000",
    "longi": "82.85749000"
  },
  {
    "city": "ap-Ellore",
    "name": "Ellore",
    "lat": "16.71311000",
    "longi": "81.10437000"
  },
  {
    "city": "ap-Emmiganur",
    "name": "Emmiganur",
    "lat": "15.77203000",
    "longi": "77.48345000"
  },
  {
    "city": "ap-Erraguntla",
    "name": "Erraguntla",
    "lat": "14.63853000",
    "longi": "78.53974000"
  },
  {
    "city": "ap-Etikoppaka",
    "name": "Etikoppaka",
    "lat": "17.50000000",
    "longi": "82.73333000"
  },
  {
    "city": "ap-Gajuwaka",
    "name": "Gajuwaka",
    "lat": "17.70000000",
    "longi": "83.21667000"
  },
  {
    "city": "ap-Ganguvada",
    "name": "Ganguvada",
    "lat": "18.66667000",
    "longi": "84.11667000"
  },
  {
    "city": "ap-Gannavaram",
    "name": "Gannavaram",
    "lat": "16.54092000",
    "longi": "80.80213000"
  },
  {
    "city": "ap-Giddalur",
    "name": "Giddalur",
    "lat": "15.37439000",
    "longi": "78.92609000"
  },
  {
    "city": "ap-Gokavaram",
    "name": "Gokavaram",
    "lat": "17.25823000",
    "longi": "81.84985000"
  },
  {
    "city": "ap-Gorantla",
    "name": "Gorantla",
    "lat": "13.98411000",
    "longi": "77.77224000"
  },
  {
    "city": "ap-Govindapuram,Chilakaluripet,Guntur",
    "name": "Govindapuram,Chilakaluripet,Guntur",
    "lat": "16.15477000",
    "longi": "80.10279000"
  },
  {
    "city": "ap-Gudivada",
    "name": "Gudivada",
    "lat": "16.43547000",
    "longi": "80.99555000"
  },
  {
    "city": "ap-Gudlavalleru",
    "name": "Gudlavalleru",
    "lat": "16.35000000",
    "longi": "81.05000000"
  },
  {
    "city": "ap-Gudur",
    "name": "Gudur",
    "lat": "14.15093000",
    "longi": "79.85210000"
  },
  {
    "city": "ap-Guntakal Junction",
    "name": "Guntakal Junction",
    "lat": "15.17112000",
    "longi": "77.36244000"
  },
  {
    "city": "ap-Guntur",
    "name": "Guntur",
    "lat": "16.29974000",
    "longi": "80.45729000"
  },
  {
    "city": "ap-Hindupur",
    "name": "Hindupur",
    "lat": "13.82807000",
    "longi": "77.49143000"
  },
  {
    "city": "ap-Ichchapuram",
    "name": "Ichchapuram",
    "lat": "19.11393000",
    "longi": "84.68721000"
  },
  {
    "city": "ap-Jaggayyapeta",
    "name": "Jaggayyapeta",
    "lat": "16.89380000",
    "longi": "80.09807000"
  },
  {
    "city": "ap-Jammalamadugu",
    "name": "Jammalamadugu",
    "lat": "14.84677000",
    "longi": "78.38314000"
  },
  {
    "city": "ap-Kadiri",
    "name": "Kadiri",
    "lat": "14.11168000",
    "longi": "78.15982000"
  },
  {
    "city": "ap-Kaikalur",
    "name": "Kaikalur",
    "lat": "16.55154000",
    "longi": "81.21400000"
  },
  {
    "city": "ap-Kakinada",
    "name": "Kakinada",
    "lat": "16.96036000",
    "longi": "82.23809000"
  },
  {
    "city": "ap-Kalyandurg",
    "name": "Kalyandurg",
    "lat": "14.54519000",
    "longi": "77.10552000"
  },
  {
    "city": "ap-Kamalapuram",
    "name": "Kamalapuram",
    "lat": "14.59830000",
    "longi": "78.66948000"
  },
  {
    "city": "ap-Kandukur",
    "name": "Kandukur",
    "lat": "15.21542000",
    "longi": "79.90390000"
  },
  {
    "city": "ap-Kanigiri",
    "name": "Kanigiri",
    "lat": "15.40555000",
    "longi": "79.50694000"
  },
  {
    "city": "ap-Kankipadu",
    "name": "Kankipadu",
    "lat": "16.43530000",
    "longi": "80.76715000"
  },
  {
    "city": "ap-Kanuru",
    "name": "Kanuru",
    "lat": "16.28584000",
    "longi": "81.25464000"
  },
  {
    "city": "ap-Kavali",
    "name": "Kavali",
    "lat": "14.91630000",
    "longi": "79.99449000"
  },
  {
    "city": "ap-Kolanukonda",
    "name": "Kolanukonda",
    "lat": "16.45392000",
    "longi": "80.61046000"
  },
  {
    "city": "ap-Kondapalle",
    "name": "Kondapalle",
    "lat": "16.61989000",
    "longi": "80.54244000"
  },
  {
    "city": "ap-Korukollu",
    "name": "Korukollu",
    "lat": "16.50000000",
    "longi": "81.25000000"
  },
  {
    "city": "ap-Kosigi",
    "name": "Kosigi",
    "lat": "15.85510000",
    "longi": "77.24463000"
  },
  {
    "city": "ap-Kovvur",
    "name": "Kovvur",
    "lat": "17.01620000",
    "longi": "81.72934000"
  },
  {
    "city": "ap-Krishna",
    "name": "Krishna",
    "lat": "16.66667000",
    "longi": "81.00000000"
  },
  {
    "city": "ap-Kuppam",
    "name": "Kuppam",
    "lat": "12.74931000",
    "longi": "78.34189000"
  },
  {
    "city": "ap-Kurnool",
    "name": "Kurnool",
    "lat": "15.58333000",
    "longi": "78.33333000"
  },
  {
    "city": "ap-Macherla",
    "name": "Macherla",
    "lat": "16.47635000",
    "longi": "79.43533000"
  },
  {
    "city": "ap-Machilipatnam",
    "name": "Machilipatnam",
    "lat": "16.18747000",
    "longi": "81.13888000"
  },
  {
    "city": "ap-Madanapalle",
    "name": "Madanapalle",
    "lat": "13.55030000",
    "longi": "78.50288000"
  },
  {
    "city": "ap-Madugula",
    "name": "Madugula",
    "lat": "17.91589000",
    "longi": "82.81578000"
  },
  {
    "city": "ap-Mandapeta",
    "name": "Mandapeta",
    "lat": "16.86254000",
    "longi": "81.92921000"
  },
  {
    "city": "ap-Mandasa",
    "name": "Mandasa",
    "lat": "18.86830000",
    "longi": "84.46296000"
  },
  {
    "city": "ap-Mangalagiri",
    "name": "Mangalagiri",
    "lat": "16.43083000",
    "longi": "80.56815000"
  },
  {
    "city": "ap-Markapur",
    "name": "Markapur",
    "lat": "15.73534000",
    "longi": "79.26848000"
  },
  {
    "city": "ap-Nagari",
    "name": "Nagari",
    "lat": "13.32139000",
    "longi": "79.58557000"
  },
  {
    "city": "ap-Nagireddipalli",
    "name": "Nagireddipalli",
    "lat": "14.27005000",
    "longi": "79.10131000"
  },
  {
    "city": "ap-Nandigama",
    "name": "Nandigama",
    "lat": "16.77170000",
    "longi": "80.28596000"
  },
  {
    "city": "ap-Nandikotkur",
    "name": "Nandikotkur",
    "lat": "15.85668000",
    "longi": "78.26569000"
  },
  {
    "city": "ap-Nandyal",
    "name": "Nandyal",
    "lat": "15.47799000",
    "longi": "78.48360000"
  },
  {
    "city": "ap-Narasannapeta",
    "name": "Narasannapeta",
    "lat": "18.41428000",
    "longi": "84.04463000"
  },
  {
    "city": "ap-Narasapur",
    "name": "Narasapur",
    "lat": "16.43425000",
    "longi": "81.69845000"
  },
  {
    "city": "ap-Narasaraopet",
    "name": "Narasaraopet",
    "lat": "16.23488000",
    "longi": "80.04927000"
  },
  {
    "city": "ap-Narasingapuram",
    "name": "Narasingapuram",
    "lat": "13.60759000",
    "longi": "79.31652000"
  },
  {
    "city": "ap-Narayanavanam",
    "name": "Narayanavanam",
    "lat": "13.42565000",
    "longi": "79.58881000"
  },
  {
    "city": "ap-Narsipatnam",
    "name": "Narsipatnam",
    "lat": "17.66709000",
    "longi": "82.61245000"
  },
  {
    "city": "ap-Nayudupet",
    "name": "Nayudupet",
    "lat": "13.90742000",
    "longi": "79.89465000"
  },
  {
    "city": "ap-Nellore",
    "name": "Nellore",
    "lat": "14.08333000",
    "longi": "79.58333000"
  },
  {
    "city": "ap-Nidadavole",
    "name": "Nidadavole",
    "lat": "16.90572000",
    "longi": "81.67222000"
  },
  {
    "city": "ap-Nuzvid",
    "name": "Nuzvid",
    "lat": "16.78854000",
    "longi": "80.84593000"
  },
  {
    "city": "ap-Ongole",
    "name": "Ongole",
    "lat": "15.50357000",
    "longi": "80.04454000"
  },
  {
    "city": "ap-Pakala",
    "name": "Pakala",
    "lat": "13.44903000",
    "longi": "79.11493000"
  },
  {
    "city": "ap-Palakollu",
    "name": "Palakollu",
    "lat": "16.51670000",
    "longi": "81.73000000"
  },
  {
    "city": "ap-Palasa",
    "name": "Palasa",
    "lat": "18.77257000",
    "longi": "84.41012000"
  },
  {
    "city": "ap-Palkonda",
    "name": "Palkonda",
    "lat": "18.60374000",
    "longi": "83.75568000"
  },
  {
    "city": "ap-Pallevada",
    "name": "Pallevada",
    "lat": "16.57790000",
    "longi": "81.29463000"
  },
  {
    "city": "ap-Palmaner",
    "name": "Palmaner",
    "lat": "13.20000000",
    "longi": "78.74725000"
  },
  {
    "city": "ap-Parlakimidi",
    "name": "Parlakimidi",
    "lat": "18.78113000",
    "longi": "84.08836000"
  },
  {
    "city": "ap-Parvatipuram",
    "name": "Parvatipuram",
    "lat": "18.78392000",
    "longi": "83.42569000"
  },
  {
    "city": "ap-Pavuluru",
    "name": "Pavuluru",
    "lat": "15.85292000",
    "longi": "80.16468000"
  },
  {
    "city": "ap-Pedana",
    "name": "Pedana",
    "lat": "16.25582000",
    "longi": "81.14378000"
  },
  {
    "city": "ap-pedda nakkalapalem",
    "name": "pedda nakkalapalem",
    "lat": "15.86680000",
    "longi": "80.16202000"
  },
  {
    "city": "ap-Peddapuram",
    "name": "Peddapuram",
    "lat": "17.07701000",
    "longi": "82.13836000"
  },
  {
    "city": "ap-Penugonda",
    "name": "Penugonda",
    "lat": "16.65363000",
    "longi": "81.74550000"
  },
  {
    "city": "ap-Penukonda",
    "name": "Penukonda",
    "lat": "14.08286000",
    "longi": "77.59473000"
  },
  {
    "city": "ap-Phirangipuram",
    "name": "Phirangipuram",
    "lat": "16.29078000",
    "longi": "80.26233000"
  },
  {
    "city": "ap-Pippara",
    "name": "Pippara",
    "lat": "16.71667000",
    "longi": "81.55000000"
  },
  {
    "city": "ap-Pithapuram",
    "name": "Pithapuram",
    "lat": "17.11680000",
    "longi": "82.25284000"
  },
  {
    "city": "ap-Polavaram",
    "name": "Polavaram",
    "lat": "17.24754000",
    "longi": "81.64372000"
  },
  {
    "city": "ap-Ponnur",
    "name": "Ponnur",
    "lat": "16.07114000",
    "longi": "80.54944000"
  },
  {
    "city": "ap-Ponnuru",
    "name": "Ponnuru",
    "lat": "16.06547000",
    "longi": "80.55203000"
  },
  {
    "city": "ap-Prakasam",
    "name": "Prakasam",
    "lat": "15.50000000",
    "longi": "79.50000000"
  },
  {
    "city": "ap-Proddatur",
    "name": "Proddatur",
    "lat": "14.75020000",
    "longi": "78.54813000"
  },
  {
    "city": "ap-Pulivendla",
    "name": "Pulivendla",
    "lat": "14.42139000",
    "longi": "78.22502000"
  },
  {
    "city": "ap-Punganuru",
    "name": "Punganuru",
    "lat": "13.36672000",
    "longi": "78.57186000"
  },
  {
    "city": "ap-Puttaparthi",
    "name": "Puttaparthi",
    "lat": "14.16520000",
    "longi": "77.81170000"
  },
  {
    "city": "ap-Puttur",
    "name": "Puttur",
    "lat": "13.44189000",
    "longi": "79.55314000"
  },
  {
    "city": "ap-Rajahmundry",
    "name": "Rajahmundry",
    "lat": "17.00517000",
    "longi": "81.77784000"
  },
  {
    "city": "ap-Ramachandrapuram",
    "name": "Ramachandrapuram",
    "lat": "16.83636000",
    "longi": "82.02871000"
  },
  {
    "city": "ap-Ramanayyapeta",
    "name": "Ramanayyapeta",
    "lat": "16.94516000",
    "longi": "82.23850000"
  },
  {
    "city": "ap-Ramapuram",
    "name": "Ramapuram",
    "lat": "15.28749000",
    "longi": "77.86722000"
  },
  {
    "city": "ap-Rampachodavaram",
    "name": "Rampachodavaram",
    "lat": "17.44088000",
    "longi": "81.77558000"
  },
  {
    "city": "ap-Rayachoti",
    "name": "Rayachoti",
    "lat": "14.05723000",
    "longi": "78.75056000"
  },
  {
    "city": "ap-Rayadrug",
    "name": "Rayadrug",
    "lat": "14.69971000",
    "longi": "76.85241000"
  },
  {
    "city": "ap-Razam",
    "name": "Razam",
    "lat": "18.44909000",
    "longi": "83.65957000"
  },
  {
    "city": "ap-Razampeta",
    "name": "Razampeta",
    "lat": "14.19544000",
    "longi": "79.15896000"
  },
  {
    "city": "ap-Razole",
    "name": "Razole",
    "lat": "16.47608000",
    "longi": "81.83912000"
  },
  {
    "city": "ap-Renigunta",
    "name": "Renigunta",
    "lat": "13.65143000",
    "longi": "79.51256000"
  },
  {
    "city": "ap-Repalle",
    "name": "Repalle",
    "lat": "16.01840000",
    "longi": "80.82958000"
  },
  {
    "city": "ap-Salur",
    "name": "Salur",
    "lat": "18.51716000",
    "longi": "83.20548000"
  },
  {
    "city": "ap-Samalkot",
    "name": "Samalkot",
    "lat": "17.05675000",
    "longi": "82.17639000"
  },
  {
    "city": "ap-Sattenapalle",
    "name": "Sattenapalle",
    "lat": "16.39381000",
    "longi": "80.15221000"
  },
  {
    "city": "ap-Singarayakonda",
    "name": "Singarayakonda",
    "lat": "15.23046000",
    "longi": "80.02794000"
  },
  {
    "city": "ap-Sompeta",
    "name": "Sompeta",
    "lat": "18.94419000",
    "longi": "84.58449000"
  },
  {
    "city": "ap-Srikakulam",
    "name": "Srikakulam",
    "lat": "18.29890000",
    "longi": "83.89751000"
  },
  {
    "city": "ap-Srisailain",
    "name": "Srisailain",
    "lat": "16.07217000",
    "longi": "78.86816000"
  },
  {
    "city": "ap-Suluru",
    "name": "Suluru",
    "lat": "13.70000000",
    "longi": "80.01667000"
  },
  {
    "city": "ap-Tadepalle",
    "name": "Tadepalle",
    "lat": "16.48333000",
    "longi": "80.60000000"
  },
  {
    "city": "ap-Tadepallegudem",
    "name": "Tadepallegudem",
    "lat": "16.81467000",
    "longi": "81.52717000"
  },
  {
    "city": "ap-Tadpatri",
    "name": "Tadpatri",
    "lat": "14.90832000",
    "longi": "78.01031000"
  },
  {
    "city": "ap-Tanuku",
    "name": "Tanuku",
    "lat": "16.75438000",
    "longi": "81.68143000"
  },
  {
    "city": "ap-Tekkali",
    "name": "Tekkali",
    "lat": "18.60570000",
    "longi": "84.23546000"
  },
  {
    "city": "ap-Tirumala",
    "name": "Tirumala",
    "lat": "13.68333000",
    "longi": "79.35000000"
  },
  {
    "city": "ap-Tirupati",
    "name": "Tirupati",
    "lat": "13.63551000",
    "longi": "79.41989000"
  },
  {
    "city": "ap-Tuni",
    "name": "Tuni",
    "lat": "17.35905000",
    "longi": "82.54607000"
  },
  {
    "city": "ap-Uravakonda",
    "name": "Uravakonda",
    "lat": "14.94348000",
    "longi": "77.25494000"
  },
  {
    "city": "ap-vadlamuru",
    "name": "vadlamuru",
    "lat": "17.09545000",
    "longi": "82.16565000"
  },
  {
    "city": "ap-Vadlapudi",
    "name": "Vadlapudi",
    "lat": "14.31119000",
    "longi": "79.80430000"
  },
  {
    "city": "ap-Venkatagiri",
    "name": "Venkatagiri",
    "lat": "13.96005000",
    "longi": "79.58032000"
  },
  {
    "city": "ap-Vepagunta",
    "name": "Vepagunta",
    "lat": "17.77844000",
    "longi": "83.21577000"
  },
  {
    "city": "ap-Vetapalem",
    "name": "Vetapalem",
    "lat": "15.78502000",
    "longi": "80.30663000"
  },
  {
    "city": "ap-Vijayawada",
    "name": "Vijayawada",
    "lat": "16.50745000",
    "longi": "80.64660000"
  },
  {
    "city": "ap-Vinukonda",
    "name": "Vinukonda",
    "lat": "16.05310000",
    "longi": "79.73964000"
  },
  {
    "city": "ap-Visakhapatnam",
    "name": "Visakhapatnam",
    "lat": "17.68009000",
    "longi": "83.20161000"
  },
  {
    "city": "ap-Vizianagaram",
    "name": "Vizianagaram",
    "lat": "18.11692000",
    "longi": "83.41148000"
  },
  {
    "city": "ap-Vizianagaram",
    "name": "Vizianagaram",
    "lat": "18.41102000",
    "longi": "83.37677000"
  },
  {
    "city": "ap-Vuyyuru",
    "name": "Vuyyuru",
    "lat": "16.36307000",
    "longi": "80.84406000"
  },
  {
    "city": "ap-West Godavari",
    "name": "West Godavari",
    "lat": "17.00000000",
    "longi": "81.16667000"
  },
  {
    "city": "ap-Yanam",
    "name": "Yanam",
    "lat": "16.73308000",
    "longi": "82.21364000"
  },
  {
    "city": "ap-Yanamalakuduru",
    "name": "Yanamalakuduru",
    "lat": "16.48531000",
    "longi": "80.66746000"
  },
  {
    "city": "ap-Yarada",
    "name": "Yarada",
    "lat": "17.65872000",
    "longi": "83.27419000"
  }
]