[
  {
    "city": "kl-Adur",
    "name": "Adur",
    "lat": "9.15595000",
    "longi": "76.73192000"
  },
  {
    "city": "kl-Alappuzha",
    "name": "Alappuzha",
    "lat": "9.49004000",
    "longi": "76.32640000"
  },
  {
    "city": "kl-Aluva",
    "name": "Aluva",
    "lat": "10.10764000",
    "longi": "76.35158000"
  },
  {
    "city": "kl-Alwaye",
    "name": "Alwaye",
    "lat": "10.10649000",
    "longi": "76.35484000"
  },
  {
    "city": "kl-Angamali",
    "name": "Angamali",
    "lat": "10.19055000",
    "longi": "76.38789000"
  },
  {
    "city": "kl-Aroor",
    "name": "Aroor",
    "lat": "9.86940000",
    "longi": "76.30498000"
  },
  {
    "city": "kl-Arukutti",
    "name": "Arukutti",
    "lat": "9.86667000",
    "longi": "76.35000000"
  },
  {
    "city": "kl-Attingal",
    "name": "Attingal",
    "lat": "8.69609000",
    "longi": "76.81507000"
  },
  {
    "city": "kl-Avanoor",
    "name": "Avanoor",
    "lat": "10.60826000",
    "longi": "76.17620000"
  },
  {
    "city": "kl-Azhikkal",
    "name": "Azhikkal",
    "lat": "11.91524000",
    "longi": "75.34761000"
  },
  {
    "city": "kl-Badagara",
    "name": "Badagara",
    "lat": "11.59776000",
    "longi": "75.58142000"
  },
  {
    "city": "kl-Beypore",
    "name": "Beypore",
    "lat": "11.17151000",
    "longi": "75.80611000"
  },
  {
    "city": "kl-Changanacheri",
    "name": "Changanacheri",
    "lat": "9.44203000",
    "longi": "76.53604000"
  },
  {
    "city": "kl-Chēlakara",
    "name": "Chēlakara",
    "lat": "10.69289000",
    "longi": "76.34387000"
  },
  {
    "city": "kl-Chengannur",
    "name": "Chengannur",
    "lat": "9.31575000",
    "longi": "76.61513000"
  },
  {
    "city": "kl-Cherpulassery",
    "name": "Cherpulassery",
    "lat": "10.87655000",
    "longi": "76.30932000"
  },
  {
    "city": "kl-Cherthala",
    "name": "Cherthala",
    "lat": "9.68444000",
    "longi": "76.33558000"
  },
  {
    "city": "kl-Chetwayi",
    "name": "Chetwayi",
    "lat": "10.52885000",
    "longi": "76.04793000"
  },
  {
    "city": "kl-Chittur",
    "name": "Chittur",
    "lat": "10.69967000",
    "longi": "76.74710000"
  },
  {
    "city": "kl-Cochin",
    "name": "Cochin",
    "lat": "9.93988000",
    "longi": "76.26022000"
  },
  {
    "city": "kl-Kochi",
    "name": "Kochi",
    "lat": "9.93988000",
    "longi": "76.26022000"
  },
  {
    "city": "kl-Dharmadam",
    "name": "Dharmadam",
    "lat": "11.77538000",
    "longi": "75.46459000"
  },
  {
    "city": "kl-Edakkulam",
    "name": "Edakkulam",
    "lat": "10.61020000",
    "longi": "76.18352000"
  },
  {
    "city": "kl-Elur",
    "name": "Elur",
    "lat": "10.06667000",
    "longi": "76.28333000"
  },
  {
    "city": "kl-Erattupetta",
    "name": "Erattupetta",
    "lat": "9.68747000",
    "longi": "76.77891000"
  },
  {
    "city": "kl-Ernakulam",
    "name": "Ernakulam",
    "lat": "10.00000000",
    "longi": "76.50000000"
  },
  {
    "city": "kl-Ferokh",
    "name": "Ferokh",
    "lat": "11.17989000",
    "longi": "75.84141000"
  },
  {
    "city": "kl-Guruvayur",
    "name": "Guruvayur",
    "lat": "10.59430000",
    "longi": "76.04110000"
  },
  {
    "city": "kl-Idukki",
    "name": "Idukki",
    "lat": "10.00000000",
    "longi": "77.00000000"
  },
  {
    "city": "kl-Iringal",
    "name": "Iringal",
    "lat": "11.55929000",
    "longi": "75.61663000"
  },
  {
    "city": "kl-Irinjalakuda",
    "name": "Irinjalakuda",
    "lat": "10.34238000",
    "longi": "76.21124000"
  },
  {
    "city": "kl-Kadakkavoor",
    "name": "Kadakkavoor",
    "lat": "8.67921000",
    "longi": "76.76714000"
  },
  {
    "city": "kl-Kalamassery",
    "name": "Kalamassery",
    "lat": "10.06140000",
    "longi": "76.32631000"
  },
  {
    "city": "kl-Kalavoor",
    "name": "Kalavoor",
    "lat": "9.57046000",
    "longi": "76.32756000"
  },
  {
    "city": "kl-Kalpatta",
    "name": "Kalpatta",
    "lat": "11.60871000",
    "longi": "76.08343000"
  },
  {
    "city": "kl-Kannangad",
    "name": "Kannangad",
    "lat": "12.30814000",
    "longi": "75.10632000"
  },
  {
    "city": "kl-Kannavam",
    "name": "Kannavam",
    "lat": "11.84450000",
    "longi": "75.66266000"
  },
  {
    "city": "kl-Kannur",
    "name": "Kannur",
    "lat": "12.16667000",
    "longi": "75.33333000"
  },
  {
    "city": "kl-Kasaragod",
    "name": "Kasaragod",
    "lat": "12.49838000",
    "longi": "74.98959000"
  },
  {
    "city": "kl-Kasaragod",
    "name": "Kasaragod",
    "lat": "12.49246000",
    "longi": "74.99062000"
  },
  {
    "city": "kl-Kattanam",
    "name": "Kattanam",
    "lat": "9.17614000",
    "longi": "76.56325000"
  },
  {
    "city": "kl-Kayankulam",
    "name": "Kayankulam",
    "lat": "9.18173000",
    "longi": "76.50093000"
  },
  {
    "city": "kl-Kizhake Chalakudi",
    "name": "Kizhake Chalakudi",
    "lat": "10.30067000",
    "longi": "76.33763000"
  },
  {
    "city": "kl-Kodungallur",
    "name": "Kodungallur",
    "lat": "10.23263000",
    "longi": "76.19513000"
  },
  {
    "city": "kl-Kollam",
    "name": "Kollam",
    "lat": "8.88113000",
    "longi": "76.58469000"
  },
  {
    "city": "kl-Kotamangalam",
    "name": "Kotamangalam",
    "lat": "10.06435000",
    "longi": "76.62843000"
  },
  {
    "city": "kl-Kottayam",
    "name": "Kottayam",
    "lat": "9.66667000",
    "longi": "76.66667000"
  },
  {
    "city": "kl-Kovalam",
    "name": "Kovalam",
    "lat": "8.36667000",
    "longi": "76.99667000"
  },
  {
    "city": "kl-Kozhikode",
    "name": "Kozhikode",
    "lat": "11.50000000",
    "longi": "76.00000000"
  },
  {
    "city": "kl-Kumbalam",
    "name": "Kumbalam",
    "lat": "9.90630000",
    "longi": "76.31127000"
  },
  {
    "city": "kl-Kunnamangalam",
    "name": "Kunnamangalam",
    "lat": "11.30459000",
    "longi": "75.87772000"
  },
  {
    "city": "kl-Kunnamkulam",
    "name": "Kunnamkulam",
    "lat": "10.64667000",
    "longi": "76.06695000"
  },
  {
    "city": "kl-Kunnumma",
    "name": "Kunnumma",
    "lat": "9.35672000",
    "longi": "76.41343000"
  },
  {
    "city": "kl-Kutiatodu",
    "name": "Kutiatodu",
    "lat": "9.80000000",
    "longi": "76.33333000"
  },
  {
    "city": "kl-Kuttampuzha",
    "name": "Kuttampuzha",
    "lat": "10.15033000",
    "longi": "76.73544000"
  },
  {
    "city": "kl-Lalam",
    "name": "Lalam",
    "lat": "9.71667000",
    "longi": "76.70000000"
  },
  {
    "city": "kl-Mahē",
    "name": "Mahē",
    "lat": "11.70172000",
    "longi": "75.53474000"
  },
  {
    "city": "kl-Malappuram",
    "name": "Malappuram",
    "lat": "11.00000000",
    "longi": "76.16667000"
  },
  {
    "city": "kl-Manjeri",
    "name": "Manjeri",
    "lat": "11.12018000",
    "longi": "76.11996000"
  },
  {
    "city": "kl-Manjēshvar",
    "name": "Manjēshvar",
    "lat": "12.71287000",
    "longi": "74.88857000"
  },
  {
    "city": "kl-Mannarakkat",
    "name": "Mannarakkat",
    "lat": "10.99223000",
    "longi": "76.46418000"
  },
  {
    "city": "kl-Marayur",
    "name": "Marayur",
    "lat": "10.27641000",
    "longi": "77.16205000"
  },
  {
    "city": "kl-Mattanur",
    "name": "Mattanur",
    "lat": "11.93018000",
    "longi": "75.57152000"
  },
  {
    "city": "kl-Mavelikara",
    "name": "Mavelikara",
    "lat": "9.25929000",
    "longi": "76.55642000"
  },
  {
    "city": "kl-Mavoor",
    "name": "Mavoor",
    "lat": "11.26667000",
    "longi": "75.91667000"
  },
  {
    "city": "kl-Muluppilagadu",
    "name": "Muluppilagadu",
    "lat": "11.79788000",
    "longi": "75.45111000"
  },
  {
    "city": "kl-Munnar",
    "name": "Munnar",
    "lat": "10.08818000",
    "longi": "77.06239000"
  },
  {
    "city": "kl-Muvattupula",
    "name": "Muvattupula",
    "lat": "9.98493000",
    "longi": "76.57728000"
  },
  {
    "city": "kl-Muvattupuzha",
    "name": "Muvattupuzha",
    "lat": "9.97985000",
    "longi": "76.57381000"
  },
  {
    "city": "kl-Nadapuram",
    "name": "Nadapuram",
    "lat": "11.68465000",
    "longi": "75.65493000"
  },
  {
    "city": "kl-Naduvannur",
    "name": "Naduvannur",
    "lat": "11.48772000",
    "longi": "75.77511000"
  },
  {
    "city": "kl-Nedumangad",
    "name": "Nedumangad",
    "lat": "8.60267000",
    "longi": "77.00139000"
  },
  {
    "city": "kl-Neyyattinkara",
    "name": "Neyyattinkara",
    "lat": "8.39854000",
    "longi": "77.08586000"
  },
  {
    "city": "kl-Nilēshwar",
    "name": "Nilēshwar",
    "lat": "12.25953000",
    "longi": "75.13520000"
  },
  {
    "city": "kl-Ottappalam",
    "name": "Ottappalam",
    "lat": "10.77350000",
    "longi": "76.37758000"
  },
  {
    "city": "kl-Palackattumala",
    "name": "Palackattumala",
    "lat": "9.74356000",
    "longi": "76.62940000"
  },
  {
    "city": "kl-Palakkad",
    "name": "Palakkad",
    "lat": "10.77500000",
    "longi": "76.65100000"
  },
  {
    "city": "kl-Palghat",
    "name": "Palghat",
    "lat": "10.77319000",
    "longi": "76.65366000"
  },
  {
    "city": "kl-Panamaram",
    "name": "Panamaram",
    "lat": "11.74014000",
    "longi": "76.07369000"
  },
  {
    "city": "kl-Pappinisshēri",
    "name": "Pappinisshēri",
    "lat": "11.95655000",
    "longi": "75.34034000"
  },
  {
    "city": "kl-Paravur Tekkumbhagam",
    "name": "Paravur Tekkumbhagam",
    "lat": "8.79470000",
    "longi": "76.66798000"
  },
  {
    "city": "kl-Pariyapuram",
    "name": "Pariyapuram",
    "lat": "11.01667000",
    "longi": "75.86667000"
  },
  {
    "city": "kl-Pathanamthitta",
    "name": "Pathanamthitta",
    "lat": "9.26667000",
    "longi": "76.78333000"
  },
  {
    "city": "kl-Pattanamtitta",
    "name": "Pattanamtitta",
    "lat": "9.28068000",
    "longi": "76.86967000"
  },
  {
    "city": "kl-Payyannur",
    "name": "Payyannur",
    "lat": "12.09350000",
    "longi": "75.20249000"
  },
  {
    "city": "kl-Perumbavoor",
    "name": "Perumbavoor",
    "lat": "10.10695000",
    "longi": "76.47366000"
  },
  {
    "city": "kl-Perumpavur",
    "name": "Perumpavur",
    "lat": "10.11544000",
    "longi": "76.47611000"
  },
  {
    "city": "kl-Perya",
    "name": "Perya",
    "lat": "11.83334000",
    "longi": "75.85408000"
  },
  {
    "city": "kl-Piravam",
    "name": "Piravam",
    "lat": "9.86667000",
    "longi": "76.50000000"
  },
  {
    "city": "kl-Ponmana",
    "name": "Ponmana",
    "lat": "9.00798000",
    "longi": "76.52023000"
  },
  {
    "city": "kl-Ponnani",
    "name": "Ponnani",
    "lat": "10.76695000",
    "longi": "75.92523000"
  },
  {
    "city": "kl-Punalur",
    "name": "Punalur",
    "lat": "9.01956000",
    "longi": "76.92261000"
  },
  {
    "city": "kl-Ramamangalam",
    "name": "Ramamangalam",
    "lat": "9.93333000",
    "longi": "76.50000000"
  },
  {
    "city": "kl-Shertallai",
    "name": "Shertallai",
    "lat": "9.68581000",
    "longi": "76.33996000"
  },
  {
    "city": "kl-Shōranur",
    "name": "Shōranur",
    "lat": "10.76181000",
    "longi": "76.27078000"
  },
  {
    "city": "kl-Talipparamba",
    "name": "Talipparamba",
    "lat": "12.04161000",
    "longi": "75.35927000"
  },
  {
    "city": "kl-Tellicherry",
    "name": "Tellicherry",
    "lat": "11.74811000",
    "longi": "75.49290000"
  },
  {
    "city": "kl-Thanniyam",
    "name": "Thanniyam",
    "lat": "10.41667000",
    "longi": "76.13333000"
  },
  {
    "city": "kl-Thiruvananthapuram",
    "name": "Thiruvananthapuram",
    "lat": "8.60399000",
    "longi": "76.98574000"
  },
  {
    "city": "kl-Thrissur",
    "name": "Thrissur",
    "lat": "10.51667000",
    "longi": "76.21667000"
  },
  {
    "city": "kl-Thrissur",
    "name": "Thrissur",
    "lat": "10.52022000",
    "longi": "76.22040000"
  },
  {
    "city": "kl-Tirur",
    "name": "Tirur",
    "lat": "10.91368000",
    "longi": "75.92118000"
  },
  {
    "city": "kl-Tiruvalla",
    "name": "Tiruvalla",
    "lat": "9.38160000",
    "longi": "76.57489000"
  },
  {
    "city": "kl-Vaikam",
    "name": "Vaikam",
    "lat": "9.74858000",
    "longi": "76.39637000"
  },
  {
    "city": "kl-Varkala",
    "name": "Varkala",
    "lat": "8.73330000",
    "longi": "76.71670000"
  },
  {
    "city": "kl-Vayalar",
    "name": "Vayalar",
    "lat": "9.71158000",
    "longi": "76.33888000"
  },
  {
    "city": "kl-Vettur",
    "name": "Vettur",
    "lat": "8.71742000",
    "longi": "76.72582000"
  },
  {
    "city": "kl-Wayanad",
    "name": "Wayanad",
    "lat": "11.60500000",
    "longi": "76.08300000"
  }
]