[
  {
    "city": "tn-Abiramam",
    "name": "Abiramam",
    "lat": "9.44230000",
    "longi": "78.43990000"
  },
  {
    "city": "tn-Adirampattinam",
    "name": "Adirampattinam",
    "lat": "10.34059000",
    "longi": "79.37905000"
  },
  {
    "city": "tn-Aduthurai",
    "name": "Aduthurai",
    "lat": "11.01542000",
    "longi": "79.48093000"
  },
  {
    "city": "tn-Alagapuram",
    "name": "Alagapuram",
    "lat": "11.88705000",
    "longi": "78.91758000"
  },
  {
    "city": "tn-Alandur",
    "name": "Alandur",
    "lat": "13.00250000",
    "longi": "80.20611000"
  },
  {
    "city": "tn-Alanganallur",
    "name": "Alanganallur",
    "lat": "10.04697000",
    "longi": "78.09033000"
  },
  {
    "city": "tn-Alangayam",
    "name": "Alangayam",
    "lat": "12.62235000",
    "longi": "78.75207000"
  },
  {
    "city": "tn-Alangudi",
    "name": "Alangudi",
    "lat": "10.36060000",
    "longi": "78.98492000"
  },
  {
    "city": "tn-Alangulam",
    "name": "Alangulam",
    "lat": "8.86404000",
    "longi": "77.49937000"
  },
  {
    "city": "tn-Alappakkam",
    "name": "Alappakkam",
    "lat": "11.59895000",
    "longi": "79.71893000"
  },
  {
    "city": "tn-Alwa Tirunagari",
    "name": "Alwa Tirunagari",
    "lat": "8.60635000",
    "longi": "77.93983000"
  },
  {
    "city": "tn-Ambasamudram",
    "name": "Ambasamudram",
    "lat": "8.71068000",
    "longi": "77.45190000"
  },
  {
    "city": "tn-Ambattur",
    "name": "Ambattur",
    "lat": "13.09818000",
    "longi": "80.16152000"
  },
  {
    "city": "tn-Ambur",
    "name": "Ambur",
    "lat": "12.79163000",
    "longi": "78.71644000"
  },
  {
    "city": "tn-Ammapettai",
    "name": "Ammapettai",
    "lat": "10.79476000",
    "longi": "79.31986000"
  },
  {
    "city": "tn-Anamalais",
    "name": "Anamalais",
    "lat": "10.58303000",
    "longi": "76.93441000"
  },
  {
    "city": "tn-Andippatti",
    "name": "Andippatti",
    "lat": "9.99797000",
    "longi": "77.62097000"
  },
  {
    "city": "tn-Annamalainagar",
    "name": "Annamalainagar",
    "lat": "11.40000000",
    "longi": "79.73333000"
  },
  {
    "city": "tn-Annavasal",
    "name": "Annavasal",
    "lat": "10.46060000",
    "longi": "78.70029000"
  },
  {
    "city": "tn-Annur",
    "name": "Annur",
    "lat": "11.23616000",
    "longi": "77.10514000"
  },
  {
    "city": "tn-Anthiyur",
    "name": "Anthiyur",
    "lat": "11.57506000",
    "longi": "77.59043000"
  },
  {
    "city": "tn-Arakkonam",
    "name": "Arakkonam",
    "lat": "13.08449000",
    "longi": "79.67053000"
  },
  {
    "city": "tn-Arantangi",
    "name": "Arantangi",
    "lat": "10.17235000",
    "longi": "78.99118000"
  },
  {
    "city": "tn-Arcot",
    "name": "Arcot",
    "lat": "12.90569000",
    "longi": "79.31897000"
  },
  {
    "city": "tn-Arimalam",
    "name": "Arimalam",
    "lat": "10.25498000",
    "longi": "78.88403000"
  },
  {
    "city": "tn-Ariyalur",
    "name": "Ariyalur",
    "lat": "11.15000000",
    "longi": "79.25000000"
  },
  {
    "city": "tn-Arni",
    "name": "Arni",
    "lat": "12.66771000",
    "longi": "79.28529000"
  },
  {
    "city": "tn-Arumbavur",
    "name": "Arumbavur",
    "lat": "11.38096000",
    "longi": "78.72965000"
  },
  {
    "city": "tn-Arumuganeri",
    "name": "Arumuganeri",
    "lat": "8.56880000",
    "longi": "78.09091000"
  },
  {
    "city": "tn-Aruppukkottai",
    "name": "Aruppukkottai",
    "lat": "9.50960000",
    "longi": "78.09588000"
  },
  {
    "city": "tn-Aruvankad",
    "name": "Aruvankad",
    "lat": "11.36315000",
    "longi": "76.75790000"
  },
  {
    "city": "tn-Attayyampatti",
    "name": "Attayyampatti",
    "lat": "11.53272000",
    "longi": "78.05363000"
  },
  {
    "city": "tn-Attur",
    "name": "Attur",
    "lat": "11.59414000",
    "longi": "78.60143000"
  },
  {
    "city": "tn-Auroville",
    "name": "Auroville",
    "lat": "12.00549000",
    "longi": "79.80885000"
  },
  {
    "city": "tn-Avadi",
    "name": "Avadi",
    "lat": "13.11470000",
    "longi": "80.10981000"
  },
  {
    "city": "tn-Avinashi",
    "name": "Avinashi",
    "lat": "11.19297000",
    "longi": "77.26865000"
  },
  {
    "city": "tn-Ayakudi",
    "name": "Ayakudi",
    "lat": "10.44992000",
    "longi": "77.55198000"
  },
  {
    "city": "tn-Ayyampettai",
    "name": "Ayyampettai",
    "lat": "10.90141000",
    "longi": "79.17984000"
  },
  {
    "city": "tn-Belur",
    "name": "Belur",
    "lat": "11.70752000",
    "longi": "78.41437000"
  },
  {
    "city": "tn-Bhavani",
    "name": "Bhavani",
    "lat": "11.44553000",
    "longi": "77.68215000"
  },
  {
    "city": "tn-Bodinayakkanur",
    "name": "Bodinayakkanur",
    "lat": "10.01171000",
    "longi": "77.34976000"
  },
  {
    "city": "tn-Chengam",
    "name": "Chengam",
    "lat": "12.30889000",
    "longi": "78.79137000"
  },
  {
    "city": "tn-Chennai",
    "name": "Chennai",
    "lat": "13.08784000",
    "longi": "80.27847000"
  },
  {
    "city": "tn-Chennimalai",
    "name": "Chennimalai",
    "lat": "11.16378000",
    "longi": "77.60388000"
  },
  {
    "city": "tn-Chetput",
    "name": "Chetput",
    "lat": "13.07000000",
    "longi": "80.24083000"
  },
  {
    "city": "tn-Chettipalaiyam",
    "name": "Chettipalaiyam",
    "lat": "10.91248000",
    "longi": "77.03699000"
  },
  {
    "city": "tn-Cheyyar",
    "name": "Cheyyar",
    "lat": "12.66052000",
    "longi": "79.54308000"
  },
  {
    "city": "tn-Cheyyur",
    "name": "Cheyyur",
    "lat": "12.34948000",
    "longi": "80.00304000"
  },
  {
    "city": "tn-Chidambaram",
    "name": "Chidambaram",
    "lat": "11.39933000",
    "longi": "79.69144000"
  },
  {
    "city": "tn-Chingleput",
    "name": "Chingleput",
    "lat": "12.69184000",
    "longi": "79.97661000"
  },
  {
    "city": "tn-Chinna Salem",
    "name": "Chinna Salem",
    "lat": "11.63422000",
    "longi": "78.87412000"
  },
  {
    "city": "tn-Chinnamanur",
    "name": "Chinnamanur",
    "lat": "9.83999000",
    "longi": "77.38109000"
  },
  {
    "city": "tn-Chinnasekkadu",
    "name": "Chinnasekkadu",
    "lat": "13.16089000",
    "longi": "80.25727000"
  },
  {
    "city": "tn-Cholapuram",
    "name": "Cholapuram",
    "lat": "9.35193000",
    "longi": "77.56839000"
  },
  {
    "city": "tn-Coimbatore",
    "name": "Coimbatore",
    "lat": "10.80000000",
    "longi": "77.09000000"
  },
  {
    "city": "tn-Colachel",
    "name": "Colachel",
    "lat": "8.17938000",
    "longi": "77.25818000"
  },
  {
    "city": "tn-Cuddalore",
    "name": "Cuddalore",
    "lat": "11.52000000",
    "longi": "79.51000000"
  },
  {
    "city": "tn-Cumbum",
    "name": "Cumbum",
    "lat": "9.73647000",
    "longi": "77.28470000"
  },
  {
    "city": "tn-Denkanikota",
    "name": "Denkanikota",
    "lat": "12.53010000",
    "longi": "77.78887000"
  },
  {
    "city": "tn-Desur",
    "name": "Desur",
    "lat": "12.43727000",
    "longi": "79.48145000"
  },
  {
    "city": "tn-Devadanappatti",
    "name": "Devadanappatti",
    "lat": "10.14673000",
    "longi": "77.64390000"
  },
  {
    "city": "tn-Devakottai",
    "name": "Devakottai",
    "lat": "9.94704000",
    "longi": "78.82330000"
  },
  {
    "city": "tn-Dhali",
    "name": "Dhali",
    "lat": "10.51049000",
    "longi": "77.18806000"
  },
  {
    "city": "tn-Dharapuram",
    "name": "Dharapuram",
    "lat": "10.73828000",
    "longi": "77.53223000"
  },
  {
    "city": "tn-Dharmapuri",
    "name": "Dharmapuri",
    "lat": "12.12770000",
    "longi": "78.15794000"
  },
  {
    "city": "tn-Dindigul",
    "name": "Dindigul",
    "lat": "10.40000000",
    "longi": "77.80000000"
  },
  {
    "city": "tn-Dusi",
    "name": "Dusi",
    "lat": "12.77574000",
    "longi": "79.67892000"
  },
  {
    "city": "tn-Elayirampannai",
    "name": "Elayirampannai",
    "lat": "9.27033000",
    "longi": "77.82494000"
  },
  {
    "city": "tn-Elumalai",
    "name": "Elumalai",
    "lat": "9.86501000",
    "longi": "77.69923000"
  },
  {
    "city": "tn-Eral",
    "name": "Eral",
    "lat": "8.62584000",
    "longi": "78.02282000"
  },
  {
    "city": "tn-Eraniel",
    "name": "Eraniel",
    "lat": "8.20589000",
    "longi": "77.31726000"
  },
  {
    "city": "tn-Erode",
    "name": "Erode",
    "lat": "11.34000000",
    "longi": "77.55000000"
  },
  {
    "city": "tn-Erumaippatti",
    "name": "Erumaippatti",
    "lat": "11.14671000",
    "longi": "78.28996000"
  },
  {
    "city": "tn-Ettaiyapuram",
    "name": "Ettaiyapuram",
    "lat": "9.14405000",
    "longi": "77.99066000"
  },
  {
    "city": "tn-Gandhi Nagar",
    "name": "Gandhi Nagar",
    "lat": "13.00639000",
    "longi": "80.25417000"
  },
  {
    "city": "tn-Gangaikondan",
    "name": "Gangaikondan",
    "lat": "8.85785000",
    "longi": "77.78019000"
  },
  {
    "city": "tn-Gangavalli",
    "name": "Gangavalli",
    "lat": "11.49828000",
    "longi": "78.64966000"
  },
  {
    "city": "tn-Gingee",
    "name": "Gingee",
    "lat": "12.25282000",
    "longi": "79.41727000"
  },
  {
    "city": "tn-Gobichettipalayam",
    "name": "Gobichettipalayam",
    "lat": "11.45496000",
    "longi": "77.44220000"
  },
  {
    "city": "tn-Gudalur",
    "name": "Gudalur",
    "lat": "9.67826000",
    "longi": "77.24951000"
  },
  {
    "city": "tn-Gudiyatham",
    "name": "Gudiyatham",
    "lat": "12.94601000",
    "longi": "78.87377000"
  },
  {
    "city": "tn-Guduvancheri",
    "name": "Guduvancheri",
    "lat": "12.84519000",
    "longi": "80.06055000"
  },
  {
    "city": "tn-Gummidipundi",
    "name": "Gummidipundi",
    "lat": "13.40765000",
    "longi": "80.10879000"
  },
  {
    "city": "tn-Harur",
    "name": "Harur",
    "lat": "12.05267000",
    "longi": "78.48023000"
  },
  {
    "city": "tn-Hosur",
    "name": "Hosur",
    "lat": "12.73647000",
    "longi": "77.83264000"
  },
  {
    "city": "tn-Idappadi",
    "name": "Idappadi",
    "lat": "11.58624000",
    "longi": "77.83891000"
  },
  {
    "city": "tn-Ilampillai",
    "name": "Ilampillai",
    "lat": "11.60659000",
    "longi": "78.00676000"
  },
  {
    "city": "tn-Iluppur",
    "name": "Iluppur",
    "lat": "10.51347000",
    "longi": "78.62357000"
  },
  {
    "city": "tn-Injambakkam",
    "name": "Injambakkam",
    "lat": "12.91620000",
    "longi": "80.24880000"
  },
  {
    "city": "tn-Irugur",
    "name": "Irugur",
    "lat": "11.01782000",
    "longi": "77.06285000"
  },
  {
    "city": "tn-Jalakandapuram",
    "name": "Jalakandapuram",
    "lat": "11.69779000",
    "longi": "77.87298000"
  },
  {
    "city": "tn-Jalarpet",
    "name": "Jalarpet",
    "lat": "12.57025000",
    "longi": "78.57318000"
  },
  {
    "city": "tn-Jayamkondacholapuram",
    "name": "Jayamkondacholapuram",
    "lat": "11.21266000",
    "longi": "79.36369000"
  },
  {
    "city": "tn-Kadambur",
    "name": "Kadambur",
    "lat": "8.99739000",
    "longi": "77.86191000"
  },
  {
    "city": "tn-Kadayanallur",
    "name": "Kadayanallur",
    "lat": "9.07277000",
    "longi": "77.34152000"
  },
  {
    "city": "tn-Kalakkadu",
    "name": "Kalakkadu",
    "lat": "8.51380000",
    "longi": "77.54944000"
  },
  {
    "city": "tn-Kalavai",
    "name": "Kalavai",
    "lat": "12.77029000",
    "longi": "79.41999000"
  },
  {
    "city": "tn-Kallakkurichchi",
    "name": "Kallakkurichchi",
    "lat": "11.74040000",
    "longi": "78.95900000"
  },
  {
    "city": "tn-Kallidaikurichi",
    "name": "Kallidaikurichi",
    "lat": "8.68591000",
    "longi": "77.46592000"
  },
  {
    "city": "tn-Kallupatti",
    "name": "Kallupatti",
    "lat": "9.71667000",
    "longi": "77.86667000"
  },
  {
    "city": "tn-Kalugumalai",
    "name": "Kalugumalai",
    "lat": "9.14941000",
    "longi": "77.70569000"
  },
  {
    "city": "tn-Kamuthi",
    "name": "Kamuthi",
    "lat": "9.40732000",
    "longi": "78.37337000"
  },
  {
    "city": "tn-Kanadukattan",
    "name": "Kanadukattan",
    "lat": "10.17209000",
    "longi": "78.77935000"
  },
  {
    "city": "tn-Kancheepuram",
    "name": "Kancheepuram",
    "lat": "12.67000000",
    "longi": "79.99000000"
  },
  {
    "city": "tn-Kanchipuram",
    "name": "Kanchipuram",
    "lat": "12.83515000",
    "longi": "79.70006000"
  },
  {
    "city": "tn-Kangayam",
    "name": "Kangayam",
    "lat": "11.00599000",
    "longi": "77.56090000"
  },
  {
    "city": "tn-Kanniyakumari",
    "name": "Kanniyakumari",
    "lat": "8.32000000",
    "longi": "77.34000000"
  },
  {
    "city": "tn-Karaikkudi",
    "name": "Karaikkudi",
    "lat": "10.06615000",
    "longi": "78.76784000"
  },
  {
    "city": "tn-Karamadai",
    "name": "Karamadai",
    "lat": "11.24058000",
    "longi": "76.96009000"
  },
  {
    "city": "tn-Karambakkudi",
    "name": "Karambakkudi",
    "lat": "10.45866000",
    "longi": "79.14101000"
  },
  {
    "city": "tn-Kariapatti",
    "name": "Kariapatti",
    "lat": "9.67505000",
    "longi": "78.09992000"
  },
  {
    "city": "tn-Karumbakkam",
    "name": "Karumbakkam",
    "lat": "12.70203000",
    "longi": "80.09110000"
  },
  {
    "city": "tn-Karur",
    "name": "Karur",
    "lat": "10.95771000",
    "longi": "78.08095000"
  },
  {
    "city": "tn-Katpadi",
    "name": "Katpadi",
    "lat": "12.96951000",
    "longi": "79.14552000"
  },
  {
    "city": "tn-Kattivakkam",
    "name": "Kattivakkam",
    "lat": "13.21667000",
    "longi": "80.31667000"
  },
  {
    "city": "tn-Kattupputtur",
    "name": "Kattupputtur",
    "lat": "10.99385000",
    "longi": "78.21929000"
  },
  {
    "city": "tn-Kaveripatnam",
    "name": "Kaveripatnam",
    "lat": "12.42186000",
    "longi": "78.21880000"
  },
  {
    "city": "tn-Kayalpattinam",
    "name": "Kayalpattinam",
    "lat": "8.57143000",
    "longi": "78.11992000"
  },
  {
    "city": "tn-Kayattar",
    "name": "Kayattar",
    "lat": "8.94834000",
    "longi": "77.77424000"
  },
  {
    "city": "tn-Keelakarai",
    "name": "Keelakarai",
    "lat": "9.23183000",
    "longi": "78.78545000"
  },
  {
    "city": "tn-Kelamangalam",
    "name": "Kelamangalam",
    "lat": "12.60307000",
    "longi": "77.85193000"
  },
  {
    "city": "tn-Kil Bhuvanagiri",
    "name": "Kil Bhuvanagiri",
    "lat": "11.44216000",
    "longi": "79.64763000"
  },
  {
    "city": "tn-Kilvelur",
    "name": "Kilvelur",
    "lat": "10.76721000",
    "longi": "79.74186000"
  },
  {
    "city": "tn-Kiranur",
    "name": "Kiranur",
    "lat": "10.56988000",
    "longi": "78.78682000"
  },
  {
    "city": "tn-Kodaikanal",
    "name": "Kodaikanal",
    "lat": "10.23925000",
    "longi": "77.48932000"
  },
  {
    "city": "tn-Kodumudi",
    "name": "Kodumudi",
    "lat": "11.07751000",
    "longi": "77.88363000"
  },
  {
    "city": "tn-Kombai",
    "name": "Kombai",
    "lat": "9.84745000",
    "longi": "77.29603000"
  },
  {
    "city": "tn-Konganapuram",
    "name": "Konganapuram",
    "lat": "11.57105000",
    "longi": "77.90040000"
  },
  {
    "city": "tn-Koothanallur",
    "name": "Koothanallur",
    "lat": "10.71990000",
    "longi": "79.51570000"
  },
  {
    "city": "tn-Koradachcheri",
    "name": "Koradachcheri",
    "lat": "10.77019000",
    "longi": "79.49158000"
  },
  {
    "city": "tn-Korampallam",
    "name": "Korampallam",
    "lat": "8.77506000",
    "longi": "78.09158000"
  },
  {
    "city": "tn-Kotagiri",
    "name": "Kotagiri",
    "lat": "11.42072000",
    "longi": "76.86035000"
  },
  {
    "city": "tn-Kottaiyur",
    "name": "Kottaiyur",
    "lat": "10.10956000",
    "longi": "78.79560000"
  },
  {
    "city": "tn-Kovilpatti",
    "name": "Kovilpatti",
    "lat": "9.17167000",
    "longi": "77.86989000"
  },
  {
    "city": "tn-Krishnagiri",
    "name": "Krishnagiri",
    "lat": "12.58000000",
    "longi": "77.96000000"
  },
  {
    "city": "tn-Kulattur",
    "name": "Kulattur",
    "lat": "9.00320000",
    "longi": "78.19280000"
  },
  {
    "city": "tn-Kulittalai",
    "name": "Kulittalai",
    "lat": "10.93487000",
    "longi": "78.41251000"
  },
  {
    "city": "tn-Kumaralingam",
    "name": "Kumaralingam",
    "lat": "10.48936000",
    "longi": "77.34990000"
  },
  {
    "city": "tn-Kumbakonam",
    "name": "Kumbakonam",
    "lat": "10.96209000",
    "longi": "79.39124000"
  },
  {
    "city": "tn-Kunnattur",
    "name": "Kunnattur",
    "lat": "12.34782000",
    "longi": "78.51046000"
  },
  {
    "city": "tn-Kurinjippadi",
    "name": "Kurinjippadi",
    "lat": "11.55028000",
    "longi": "79.59066000"
  },
  {
    "city": "tn-Kuttalam",
    "name": "Kuttalam",
    "lat": "8.93030000",
    "longi": "77.26951000"
  },
  {
    "city": "tn-Kuzhithurai",
    "name": "Kuzhithurai",
    "lat": "8.31792000",
    "longi": "77.19192000"
  },
  {
    "city": "tn-Lalgudi",
    "name": "Lalgudi",
    "lat": "10.87419000",
    "longi": "78.81935000"
  },
  {
    "city": "tn-Madambakkam",
    "name": "Madambakkam",
    "lat": "12.85250000",
    "longi": "80.04667000"
  },
  {
    "city": "tn-Madipakkam",
    "name": "Madipakkam",
    "lat": "12.96226000",
    "longi": "80.19864000"
  },
  {
    "city": "tn-Madukkarai",
    "name": "Madukkarai",
    "lat": "10.90568000",
    "longi": "76.96344000"
  },
  {
    "city": "tn-Madukkur",
    "name": "Madukkur",
    "lat": "10.48098000",
    "longi": "79.39939000"
  },
  {
    "city": "tn-Madurai",
    "name": "Madurai",
    "lat": "9.89000000",
    "longi": "78.03000000"
  },
  {
    "city": "tn-Madurantakam",
    "name": "Madurantakam",
    "lat": "12.51167000",
    "longi": "79.88485000"
  },
  {
    "city": "tn-Mallapuram",
    "name": "Mallapuram",
    "lat": "11.98231000",
    "longi": "78.24796000"
  },
  {
    "city": "tn-Mallasamudram",
    "name": "Mallasamudram",
    "lat": "11.49333000",
    "longi": "78.03119000"
  },
  {
    "city": "tn-Mallur",
    "name": "Mallur",
    "lat": "11.54424000",
    "longi": "78.14078000"
  },
  {
    "city": "tn-Manali",
    "name": "Manali",
    "lat": "13.16667000",
    "longi": "80.26667000"
  },
  {
    "city": "tn-Manalurpettai",
    "name": "Manalurpettai",
    "lat": "12.00788000",
    "longi": "79.09184000"
  },
  {
    "city": "tn-Manamadurai",
    "name": "Manamadurai",
    "lat": "9.67318000",
    "longi": "78.47096000"
  },
  {
    "city": "tn-Manappakkam",
    "name": "Manappakkam",
    "lat": "13.01083000",
    "longi": "80.16861000"
  },
  {
    "city": "tn-Manapparai",
    "name": "Manapparai",
    "lat": "10.60772000",
    "longi": "78.42582000"
  },
  {
    "city": "tn-Manavalakurichi",
    "name": "Manavalakurichi",
    "lat": "8.14776000",
    "longi": "77.30552000"
  },
  {
    "city": "tn-Mandapam",
    "name": "Mandapam",
    "lat": "9.27571000",
    "longi": "79.12362000"
  },
  {
    "city": "tn-Mangalam",
    "name": "Mangalam",
    "lat": "9.76473000",
    "longi": "78.64037000"
  },
  {
    "city": "tn-Mannargudi",
    "name": "Mannargudi",
    "lat": "10.66626000",
    "longi": "79.45064000"
  },
  {
    "city": "tn-Marakkanam",
    "name": "Marakkanam",
    "lat": "12.19214000",
    "longi": "79.94193000"
  },
  {
    "city": "tn-Marandahalli",
    "name": "Marandahalli",
    "lat": "12.38826000",
    "longi": "78.00316000"
  },
  {
    "city": "tn-Masinigudi",
    "name": "Masinigudi",
    "lat": "11.56831000",
    "longi": "76.64087000"
  },
  {
    "city": "tn-Mattur",
    "name": "Mattur",
    "lat": "11.32147000",
    "longi": "79.20245000"
  },
  {
    "city": "tn-Mayiladuthurai",
    "name": "Mayiladuthurai",
    "lat": "11.10354000",
    "longi": "79.65500000"
  },
  {
    "city": "tn-Melur",
    "name": "Melur",
    "lat": "10.03241000",
    "longi": "78.33930000"
  },
  {
    "city": "tn-Mettuppalaiyam",
    "name": "Mettuppalaiyam",
    "lat": "11.16806000",
    "longi": "78.44944000"
  },
  {
    "city": "tn-Mettur",
    "name": "Mettur",
    "lat": "11.78796000",
    "longi": "77.80080000"
  },
  {
    "city": "tn-Minjur",
    "name": "Minjur",
    "lat": "13.27951000",
    "longi": "80.25815000"
  },
  {
    "city": "tn-Mohanur",
    "name": "Mohanur",
    "lat": "11.05936000",
    "longi": "78.13965000"
  },
  {
    "city": "tn-Mudukulattur",
    "name": "Mudukulattur",
    "lat": "9.34169000",
    "longi": "78.51388000"
  },
  {
    "city": "tn-Mulanur",
    "name": "Mulanur",
    "lat": "10.79426000",
    "longi": "77.71150000"
  },
  {
    "city": "tn-Musiri",
    "name": "Musiri",
    "lat": "10.95299000",
    "longi": "78.44427000"
  },
  {
    "city": "tn-Muttupet",
    "name": "Muttupet",
    "lat": "10.39505000",
    "longi": "79.49353000"
  },
  {
    "city": "tn-Naduvattam",
    "name": "Naduvattam",
    "lat": "11.48075000",
    "longi": "76.54365000"
  },
  {
    "city": "tn-Nagapattinam",
    "name": "Nagapattinam",
    "lat": "10.85000000",
    "longi": "79.74000000"
  },
  {
    "city": "tn-Nagercoil",
    "name": "Nagercoil",
    "lat": "8.17899000",
    "longi": "77.43227000"
  },
  {
    "city": "tn-Namagiripettai",
    "name": "Namagiripettai",
    "lat": "11.45513000",
    "longi": "78.26818000"
  },
  {
    "city": "tn-Namakkal",
    "name": "Namakkal",
    "lat": "11.30000000",
    "longi": "78.13000000"
  },
  {
    "city": "tn-Nambiyur",
    "name": "Nambiyur",
    "lat": "11.35811000",
    "longi": "77.32115000"
  },
  {
    "city": "tn-Nambutalai",
    "name": "Nambutalai",
    "lat": "9.72766000",
    "longi": "79.00707000"
  },
  {
    "city": "tn-Nandambakkam",
    "name": "Nandambakkam",
    "lat": "12.97795000",
    "longi": "80.06781000"
  },
  {
    "city": "tn-Nangavalli",
    "name": "Nangavalli",
    "lat": "11.76189000",
    "longi": "77.89093000"
  },
  {
    "city": "tn-Nangilickondan",
    "name": "Nangilickondan",
    "lat": "12.25539000",
    "longi": "79.47508000"
  },
  {
    "city": "tn-Nanguneri",
    "name": "Nanguneri",
    "lat": "8.49326000",
    "longi": "77.65806000"
  },
  {
    "city": "tn-Nannilam",
    "name": "Nannilam",
    "lat": "10.87933000",
    "longi": "79.61062000"
  },
  {
    "city": "tn-Naravarikuppam",
    "name": "Naravarikuppam",
    "lat": "13.19133000",
    "longi": "80.18473000"
  },
  {
    "city": "tn-Nattam",
    "name": "Nattam",
    "lat": "10.22776000",
    "longi": "78.22969000"
  },
  {
    "city": "tn-Nattarasankottai",
    "name": "Nattarasankottai",
    "lat": "9.86905000",
    "longi": "78.55305000"
  },
  {
    "city": "tn-Needamangalam",
    "name": "Needamangalam",
    "lat": "10.77378000",
    "longi": "79.41875000"
  },
  {
    "city": "tn-Neelankarai",
    "name": "Neelankarai",
    "lat": "12.94950000",
    "longi": "80.25920000"
  },
  {
    "city": "tn-Negapatam",
    "name": "Negapatam",
    "lat": "10.76377000",
    "longi": "79.84313000"
  },
  {
    "city": "tn-Nellikkuppam",
    "name": "Nellikkuppam",
    "lat": "11.77554000",
    "longi": "79.67016000"
  },
  {
    "city": "tn-Nilakottai",
    "name": "Nilakottai",
    "lat": "10.16500000",
    "longi": "77.85024000"
  },
  {
    "city": "tn-Nilgiris",
    "name": "Nilgiris",
    "lat": "11.46000000",
    "longi": "76.64000000"
  },
  {
    "city": "tn-Odugattur",
    "name": "Odugattur",
    "lat": "12.76793000",
    "longi": "78.88304000"
  },
  {
    "city": "tn-Omalur",
    "name": "Omalur",
    "lat": "11.74099000",
    "longi": "78.04559000"
  },
  {
    "city": "tn-Ooty",
    "name": "Ooty",
    "lat": "11.41340000",
    "longi": "76.69521000"
  },
  {
    "city": "tn-Padmanabhapuram",
    "name": "Padmanabhapuram",
    "lat": "8.24462000",
    "longi": "77.32581000"
  },
  {
    "city": "tn-Palakkodu",
    "name": "Palakkodu",
    "lat": "12.30696000",
    "longi": "78.07022000"
  },
  {
    "city": "tn-Palamedu",
    "name": "Palamedu",
    "lat": "10.10501000",
    "longi": "78.11336000"
  },
  {
    "city": "tn-Palani",
    "name": "Palani",
    "lat": "10.45034000",
    "longi": "77.52090000"
  },
  {
    "city": "tn-Palavakkam",
    "name": "Palavakkam",
    "lat": "12.95350000",
    "longi": "80.25720000"
  },
  {
    "city": "tn-Palladam",
    "name": "Palladam",
    "lat": "10.99175000",
    "longi": "77.28633000"
  },
  {
    "city": "tn-Pallappatti",
    "name": "Pallappatti",
    "lat": "10.72057000",
    "longi": "77.87951000"
  },
  {
    "city": "tn-Pallattur",
    "name": "Pallattur",
    "lat": "10.14609000",
    "longi": "78.80309000"
  },
  {
    "city": "tn-Pallavaram",
    "name": "Pallavaram",
    "lat": "12.96796000",
    "longi": "80.15025000"
  },
  {
    "city": "tn-Pallikondai",
    "name": "Pallikondai",
    "lat": "12.90518000",
    "longi": "78.94270000"
  },
  {
    "city": "tn-Pallipattu",
    "name": "Pallipattu",
    "lat": "13.33860000",
    "longi": "79.44489000"
  },
  {
    "city": "tn-Pallippatti",
    "name": "Pallippatti",
    "lat": "11.93990000",
    "longi": "78.40161000"
  },
  {
    "city": "tn-Panruti",
    "name": "Panruti",
    "lat": "11.77662000",
    "longi": "79.55269000"
  },
  {
    "city": "tn-Papanasam",
    "name": "Papanasam",
    "lat": "10.92687000",
    "longi": "79.27056000"
  },
  {
    "city": "tn-Papireddippatti",
    "name": "Papireddippatti",
    "lat": "11.91774000",
    "longi": "78.36865000"
  },
  {
    "city": "tn-Papparappatti",
    "name": "Papparappatti",
    "lat": "12.22086000",
    "longi": "78.05920000"
  },
  {
    "city": "tn-Paramagudi",
    "name": "Paramagudi",
    "lat": "9.54633000",
    "longi": "78.59070000"
  },
  {
    "city": "tn-Pattukkottai",
    "name": "Pattukkottai",
    "lat": "10.42358000",
    "longi": "79.31949000"
  },
  {
    "city": "tn-Pennadam",
    "name": "Pennadam",
    "lat": "11.40389000",
    "longi": "79.24156000"
  },
  {
    "city": "tn-Pennagaram",
    "name": "Pennagaram",
    "lat": "12.13433000",
    "longi": "77.89525000"
  },
  {
    "city": "tn-Pennathur",
    "name": "Pennathur",
    "lat": "12.24681000",
    "longi": "79.22592000"
  },
  {
    "city": "tn-Peraiyur",
    "name": "Peraiyur",
    "lat": "9.73579000",
    "longi": "77.78955000"
  },
  {
    "city": "tn-Perambalur",
    "name": "Perambalur",
    "lat": "11.27200000",
    "longi": "78.87380000"
  },
  {
    "city": "tn-Peranamallur",
    "name": "Peranamallur",
    "lat": "12.57052000",
    "longi": "79.43332000"
  },
  {
    "city": "tn-Peranampattu",
    "name": "Peranampattu",
    "lat": "12.93430000",
    "longi": "78.71890000"
  },
  {
    "city": "tn-Peravurani",
    "name": "Peravurani",
    "lat": "10.29035000",
    "longi": "79.20156000"
  },
  {
    "city": "tn-Periyakulam",
    "name": "Periyakulam",
    "lat": "10.12268000",
    "longi": "77.54372000"
  },
  {
    "city": "tn-Periyanayakkanpalaiyam",
    "name": "Periyanayakkanpalaiyam",
    "lat": "11.15255000",
    "longi": "76.95159000"
  },
  {
    "city": "tn-Periyanegamam",
    "name": "Periyanegamam",
    "lat": "10.74317000",
    "longi": "77.10296000"
  },
  {
    "city": "tn-Periyapatti",
    "name": "Periyapatti",
    "lat": "10.75812000",
    "longi": "77.27087000"
  },
  {
    "city": "tn-Periyapattinam",
    "name": "Periyapattinam",
    "lat": "9.27263000",
    "longi": "78.90232000"
  },
  {
    "city": "tn-Perundurai",
    "name": "Perundurai",
    "lat": "11.27564000",
    "longi": "77.58794000"
  },
  {
    "city": "tn-Perungudi",
    "name": "Perungudi",
    "lat": "12.96095000",
    "longi": "80.24094000"
  },
  {
    "city": "tn-Perur",
    "name": "Perur",
    "lat": "10.97519000",
    "longi": "76.91292000"
  },
  {
    "city": "tn-Pollachi",
    "name": "Pollachi",
    "lat": "10.65825000",
    "longi": "77.00850000"
  },
  {
    "city": "tn-Polur",
    "name": "Polur",
    "lat": "12.51217000",
    "longi": "79.12405000"
  },
  {
    "city": "tn-Ponnamaravati",
    "name": "Ponnamaravati",
    "lat": "10.28032000",
    "longi": "78.53601000"
  },
  {
    "city": "tn-Ponneri",
    "name": "Ponneri",
    "lat": "13.33868000",
    "longi": "80.19487000"
  },
  {
    "city": "tn-Poonamalle",
    "name": "Poonamalle",
    "lat": "13.04888000",
    "longi": "80.11488000"
  },
  {
    "city": "tn-Porur",
    "name": "Porur",
    "lat": "13.03565000",
    "longi": "80.15821000"
  },
  {
    "city": "tn-Pudukkottai",
    "name": "Pudukkottai",
    "lat": "10.35000000",
    "longi": "78.90000000"
  },
  {
    "city": "tn-Puduppatti",
    "name": "Puduppatti",
    "lat": "11.15217000",
    "longi": "78.21205000"
  },
  {
    "city": "tn-Pudur",
    "name": "Pudur",
    "lat": "12.99801000",
    "longi": "79.14352000"
  },
  {
    "city": "tn-Puduvayal",
    "name": "Puduvayal",
    "lat": "13.33015000",
    "longi": "80.14577000"
  },
  {
    "city": "tn-Puliyangudi",
    "name": "Puliyangudi",
    "lat": "9.17489000",
    "longi": "77.39799000"
  },
  {
    "city": "tn-Puliyur",
    "name": "Puliyur",
    "lat": "10.63375000",
    "longi": "78.84139000"
  },
  {
    "city": "tn-Pullambadi",
    "name": "Pullambadi",
    "lat": "10.94110000",
    "longi": "78.91041000"
  },
  {
    "city": "tn-Punjai Puliyampatti",
    "name": "Punjai Puliyampatti",
    "lat": "11.35163000",
    "longi": "77.16671000"
  },
  {
    "city": "tn-Rajapalaiyam",
    "name": "Rajapalaiyam",
    "lat": "9.45296000",
    "longi": "77.55335000"
  },
  {
    "city": "tn-Ramanathapuram",
    "name": "Ramanathapuram",
    "lat": "9.37158000",
    "longi": "78.83077000"
  },
  {
    "city": "tn-Rameswaram",
    "name": "Rameswaram",
    "lat": "9.28850000",
    "longi": "79.31271000"
  },
  {
    "city": "tn-Ranipet",
    "name": "Ranipet",
    "lat": "12.95347490",
    "longi": "79.28159160"
  },
  {
    "city": "tn-Rasipuram",
    "name": "Rasipuram",
    "lat": "11.46009000",
    "longi": "78.18635000"
  },
  {
    "city": "tn-Saint Thomas Mount",
    "name": "Saint Thomas Mount",
    "lat": "13.00334000",
    "longi": "80.19614000"
  },
  {
    "city": "tn-Salem",
    "name": "Salem",
    "lat": "11.65370120",
    "longi": "77.99821060"
  },
  {
    "city": "tn-Sathankulam",
    "name": "Sathankulam",
    "lat": "8.44164000",
    "longi": "77.91349000"
  },
  {
    "city": "tn-Sathyamangalam",
    "name": "Sathyamangalam",
    "lat": "11.50526000",
    "longi": "77.23826000"
  },
  {
    "city": "tn-Sattur",
    "name": "Sattur",
    "lat": "9.35592000",
    "longi": "77.92457000"
  },
  {
    "city": "tn-Sayalkudi",
    "name": "Sayalkudi",
    "lat": "9.16925000",
    "longi": "78.44702000"
  },
  {
    "city": "tn-Seven Pagodas",
    "name": "Seven Pagodas",
    "lat": "12.62091000",
    "longi": "80.19331000"
  },
  {
    "city": "tn-Sholinghur",
    "name": "Sholinghur",
    "lat": "13.11810000",
    "longi": "79.42025000"
  },
  {
    "city": "tn-Singanallur",
    "name": "Singanallur",
    "lat": "10.99898000",
    "longi": "77.03238000"
  },
  {
    "city": "tn-Singapperumalkovil",
    "name": "Singapperumalkovil",
    "lat": "12.75947000",
    "longi": "80.00750000"
  },
  {
    "city": "tn-Sirkazhi",
    "name": "Sirkazhi",
    "lat": "11.23725000",
    "longi": "79.73585000"
  },
  {
    "city": "tn-Sirumugai",
    "name": "Sirumugai",
    "lat": "11.32137000",
    "longi": "77.00521000"
  },
  {
    "city": "tn-Sivaganga",
    "name": "Sivaganga",
    "lat": "9.92762000",
    "longi": "78.53763000"
  },
  {
    "city": "tn-Sivagiri",
    "name": "Sivagiri",
    "lat": "9.34461000",
    "longi": "77.42911000"
  },
  {
    "city": "tn-Sivakasi",
    "name": "Sivakasi",
    "lat": "9.44999000",
    "longi": "77.79797000"
  },
  {
    "city": "tn-Srimushnam",
    "name": "Srimushnam",
    "lat": "11.40118000",
    "longi": "79.40384000"
  },
  {
    "city": "tn-Sriperumbudur",
    "name": "Sriperumbudur",
    "lat": "12.96763000",
    "longi": "79.94197000"
  },
  {
    "city": "tn-Srivaikuntam",
    "name": "Srivaikuntam",
    "lat": "8.62931000",
    "longi": "77.91281000"
  },
  {
    "city": "tn-Srivilliputhur",
    "name": "Srivilliputhur",
    "lat": "9.51272000",
    "longi": "77.63369000"
  },
  {
    "city": "tn-Suchindram",
    "name": "Suchindram",
    "lat": "8.15442000",
    "longi": "77.46704000"
  },
  {
    "city": "tn-Sulur",
    "name": "Sulur",
    "lat": "11.02427000",
    "longi": "77.12565000"
  },
  {
    "city": "tn-Surandai",
    "name": "Surandai",
    "lat": "8.97574000",
    "longi": "77.41923000"
  },
  {
    "city": "tn-Swamimalai",
    "name": "Swamimalai",
    "lat": "10.95747000",
    "longi": "79.32931000"
  },
  {
    "city": "tn-Tambaram",
    "name": "Tambaram",
    "lat": "12.92460000",
    "longi": "80.12707000"
  },
  {
    "city": "tn-Tanjore",
    "name": "Tanjore",
    "lat": "10.78523000",
    "longi": "79.13909000"
  },
  {
    "city": "tn-Taramangalam",
    "name": "Taramangalam",
    "lat": "11.69403000",
    "longi": "77.97035000"
  },
  {
    "city": "tn-Tattayyangarpettai",
    "name": "Tattayyangarpettai",
    "lat": "11.12417000",
    "longi": "78.44916000"
  },
  {
    "city": "tn-Thanjavur",
    "name": "Thanjavur",
    "lat": "10.64000000",
    "longi": "79.22000000"
  },
  {
    "city": "tn-Tharangambadi",
    "name": "Tharangambadi",
    "lat": "11.02764000",
    "longi": "79.85425000"
  },
  {
    "city": "tn-Theni",
    "name": "Theni",
    "lat": "9.85000000",
    "longi": "77.42000000"
  },
  {
    "city": "tn-Thenkasi",
    "name": "Thenkasi",
    "lat": "8.96003000",
    "longi": "77.31525000"
  },
  {
    "city": "tn-Thirukattupalli",
    "name": "Thirukattupalli",
    "lat": "10.84431000",
    "longi": "78.95647000"
  },
  {
    "city": "tn-Thiruthani",
    "name": "Thiruthani",
    "lat": "13.17594000",
    "longi": "79.61637000"
  },
  {
    "city": "tn-Thiruvaiyaru",
    "name": "Thiruvaiyaru",
    "lat": "10.88405000",
    "longi": "79.10362000"
  },
  {
    "city": "tn-Thiruvallur",
    "name": "Thiruvallur",
    "lat": "13.25000000",
    "longi": "80.00000000"
  },
  {
    "city": "tn-Thiruvarur",
    "name": "Thiruvarur",
    "lat": "10.77269000",
    "longi": "79.63680000"
  },
  {
    "city": "tn-Thiruvidaimaruthur",
    "name": "Thiruvidaimaruthur",
    "lat": "10.99857000",
    "longi": "79.45227000"
  },
  {
    "city": "tn-Thoothukudi",
    "name": "Thoothukudi",
    "lat": "8.76735000",
    "longi": "78.13425000"
  },
  {
    "city": "tn-Tindivanam",
    "name": "Tindivanam",
    "lat": "12.23400000",
    "longi": "79.65551000"
  },
  {
    "city": "tn-Tinnanur",
    "name": "Tinnanur",
    "lat": "13.11448000",
    "longi": "80.02713000"
  },
  {
    "city": "tn-Tiruchchendur",
    "name": "Tiruchchendur",
    "lat": "8.49725000",
    "longi": "78.11906000"
  },
  {
    "city": "tn-Tiruchengode",
    "name": "Tiruchengode",
    "lat": "11.38016000",
    "longi": "77.89444000"
  },
  {
    "city": "tn-Tiruchirappalli",
    "name": "Tiruchirappalli",
    "lat": "10.97000000",
    "longi": "78.65000000"
  },
  {
    "city": "tn-Tirukkoyilur",
    "name": "Tirukkoyilur",
    "lat": "11.96620000",
    "longi": "79.20259000"
  },
  {
    "city": "tn-Tirumullaivasal",
    "name": "Tirumullaivasal",
    "lat": "11.23996000",
    "longi": "79.83705000"
  },
  {
    "city": "tn-Tirunelveli",
    "name": "Tirunelveli",
    "lat": "8.72742000",
    "longi": "77.68380000"
  },
  {
    "city": "tn-Tirunelveli Kattabo",
    "name": "Tirunelveli Kattabo",
    "lat": "8.79270000",
    "longi": "77.57409000"
  },
  {
    "city": "tn-Tiruppalaikudi",
    "name": "Tiruppalaikudi",
    "lat": "9.54606000",
    "longi": "78.91721000"
  },
  {
    "city": "tn-Tirupparangunram",
    "name": "Tirupparangunram",
    "lat": "9.88151000",
    "longi": "78.07306000"
  },
  {
    "city": "tn-Tiruppur",
    "name": "Tiruppur",
    "lat": "11.11541000",
    "longi": "77.35456000"
  },
  {
    "city": "tn-Tiruppuvanam",
    "name": "Tiruppuvanam",
    "lat": "9.82564000",
    "longi": "78.25795000"
  },
  {
    "city": "tn-Tiruttangal",
    "name": "Tiruttangal",
    "lat": "9.48333000",
    "longi": "77.83333000"
  },
  {
    "city": "tn-Tiruvannamalai",
    "name": "Tiruvannamalai",
    "lat": "12.51000000",
    "longi": "79.09000000"
  },
  {
    "city": "tn-Tiruvottiyur",
    "name": "Tiruvottiyur",
    "lat": "13.15823000",
    "longi": "80.30181000"
  },
  {
    "city": "tn-Tisaiyanvilai",
    "name": "Tisaiyanvilai",
    "lat": "8.33702000",
    "longi": "77.86776000"
  },
  {
    "city": "tn-Tondi",
    "name": "Tondi",
    "lat": "9.74173000",
    "longi": "79.01774000"
  },
  {
    "city": "tn-Turaiyur",
    "name": "Turaiyur",
    "lat": "11.14968000",
    "longi": "78.59870000"
  },
  {
    "city": "tn-Udangudi",
    "name": "Udangudi",
    "lat": "8.42918000",
    "longi": "78.02968000"
  },
  {
    "city": "tn-Udumalaippettai",
    "name": "Udumalaippettai",
    "lat": "10.58806000",
    "longi": "77.24779000"
  },
  {
    "city": "tn-Uppiliyapuram",
    "name": "Uppiliyapuram",
    "lat": "11.26356000",
    "longi": "78.51390000"
  },
  {
    "city": "tn-Usilampatti",
    "name": "Usilampatti",
    "lat": "9.96936000",
    "longi": "77.78621000"
  },
  {
    "city": "tn-Uttamapalaiyam",
    "name": "Uttamapalaiyam",
    "lat": "9.80701000",
    "longi": "77.32718000"
  },
  {
    "city": "tn-Uttiramerur",
    "name": "Uttiramerur",
    "lat": "12.61433000",
    "longi": "79.75748000"
  },
  {
    "city": "tn-Uttukkuli",
    "name": "Uttukkuli",
    "lat": "11.16892000",
    "longi": "77.45431000"
  },
  {
    "city": "tn-V.S.K.Valasai (Dindigul-Dist.)",
    "name": "V.S.K.Valasai (Dindigul-Dist.)",
    "lat": "10.31549000",
    "longi": "78.15141000"
  },
  {
    "city": "tn-Vadakku Valliyur",
    "name": "Vadakku Valliyur",
    "lat": "8.38286000",
    "longi": "77.61221000"
  },
  {
    "city": "tn-Vadakku Viravanallur",
    "name": "Vadakku Viravanallur",
    "lat": "8.69786000",
    "longi": "77.51916000"
  },
  {
    "city": "tn-Vadamadurai",
    "name": "Vadamadurai",
    "lat": "10.44081000",
    "longi": "78.09784000"
  },
  {
    "city": "tn-Vadippatti",
    "name": "Vadippatti",
    "lat": "10.08481000",
    "longi": "77.96113000"
  },
  {
    "city": "tn-Valangaiman",
    "name": "Valangaiman",
    "lat": "10.89012000",
    "longi": "79.39322000"
  },
  {
    "city": "tn-Valavanur",
    "name": "Valavanur",
    "lat": "11.92094000",
    "longi": "79.58239000"
  },
  {
    "city": "tn-Vallam",
    "name": "Vallam",
    "lat": "10.71988000",
    "longi": "79.05981000"
  },
  {
    "city": "tn-Valparai",
    "name": "Valparai",
    "lat": "10.32691000",
    "longi": "76.95116000"
  },
  {
    "city": "tn-Vandalur",
    "name": "Vandalur",
    "lat": "12.89240000",
    "longi": "80.08079000"
  },
  {
    "city": "tn-Vandavasi",
    "name": "Vandavasi",
    "lat": "12.50429000",
    "longi": "79.60556000"
  },
  {
    "city": "tn-Vaniyambadi",
    "name": "Vaniyambadi",
    "lat": "12.68162000",
    "longi": "78.62014000"
  },
  {
    "city": "tn-Vasudevanallur",
    "name": "Vasudevanallur",
    "lat": "9.24171000",
    "longi": "77.41177000"
  },
  {
    "city": "tn-Vattalkundu",
    "name": "Vattalkundu",
    "lat": "10.16069000",
    "longi": "77.75883000"
  },
  {
    "city": "tn-Vedaraniyam",
    "name": "Vedaraniyam",
    "lat": "10.37208000",
    "longi": "79.85095000"
  },
  {
    "city": "tn-Vedasandur",
    "name": "Vedasandur",
    "lat": "10.53102000",
    "longi": "77.95019000"
  },
  {
    "city": "tn-Velankanni",
    "name": "Velankanni",
    "lat": "10.68333000",
    "longi": "79.83333000"
  },
  {
    "city": "tn-Vellanur",
    "name": "Vellanur",
    "lat": "13.15804000",
    "longi": "80.10634000"
  },
  {
    "city": "tn-Vellore",
    "name": "Vellore",
    "lat": "12.86000000",
    "longi": "79.03500000"
  },
  {
    "city": "tn-Velur",
    "name": "Velur",
    "lat": "11.10825000",
    "longi": "78.00113000"
  },
  {
    "city": "tn-Vengavasal",
    "name": "Vengavasal",
    "lat": "12.89911000",
    "longi": "80.16900000"
  },
  {
    "city": "tn-Vettaikkaranpudur",
    "name": "Vettaikkaranpudur",
    "lat": "10.56207000",
    "longi": "76.91305000"
  },
  {
    "city": "tn-Vettavalam",
    "name": "Vettavalam",
    "lat": "12.10769000",
    "longi": "79.24516000"
  },
  {
    "city": "tn-Vijayapuri",
    "name": "Vijayapuri",
    "lat": "11.24530000",
    "longi": "77.50066000"
  },
  {
    "city": "tn-Vikravandi",
    "name": "Vikravandi",
    "lat": "12.03690000",
    "longi": "79.54595000"
  },
  {
    "city": "tn-Vilattikulam",
    "name": "Vilattikulam",
    "lat": "9.13227000",
    "longi": "78.16635000"
  },
  {
    "city": "tn-Villupuram",
    "name": "Villupuram",
    "lat": "11.99000000",
    "longi": "79.37000000"
  },
  {
    "city": "tn-Viraganur",
    "name": "Viraganur",
    "lat": "11.47613000",
    "longi": "78.73553000"
  },
  {
    "city": "tn-Virudhunagar",
    "name": "Virudhunagar",
    "lat": "9.45000000",
    "longi": "77.92000000"
  },
  {
    "city": "tn-Vriddhachalam",
    "name": "Vriddhachalam",
    "lat": "11.51830000",
    "longi": "79.32411000"
  },
  {
    "city": "tn-Walajapet",
    "name": "Walajapet",
    "lat": "12.92510000",
    "longi": "79.36626000"
  },
  {
    "city": "tn-Wallajahbad",
    "name": "Wallajahbad",
    "lat": "12.79041000",
    "longi": "79.82358000"
  },
  {
    "city": "tn-Wellington",
    "name": "Wellington",
    "lat": "11.36552000",
    "longi": "76.78442000"
  }
]